City_ID,City,Country,Max Temp,Current Description,Lat,Lng,Hotel Name
3,Avarua,CK,77.0,scattered clouds,-21.21,-159.78,Paradise Inn
5,Carnarvon,AU,75.2,clear sky,-24.87,113.63,Hospitality Carnarvon
14,Portel,BR,76.53,scattered clouds,-1.94,-50.82,Pousada Avenida
18,San Pedro De Macoris,DO,80.6,few clouds,18.46,-69.3,Apartahotel Guaraguao
24,Hamilton,US,77.0,scattered clouds,39.18,-84.53,Six Acres Bed & Breakfast
26,Hobyo,SO,76.42,overcast clouds,5.35,48.53,Osmani Hotel
47,Tateyama,JP,89.6,broken clouds,34.98,139.87,Tateyama Seaside Hotel
49,Lexington Park,US,77.0,thunderstorm,38.27,-76.45,TownePlace Suites by Marriott Lexington Park Patuxent River Naval Air Station
51,Atuona,PF,79.18,few clouds,-9.8,-139.03,Villa Enata
52,Victoria,HK,89.01,light rain,22.29,114.16,Mini Hotel Central
53,Ugento,IT,78.01,clear sky,39.93,18.16,Porta Paradiso
55,Key Largo,US,84.0,overcast clouds,25.09,-80.45,Bayside Inn Key Largo
60,Bandarbeyla,SO,77.25,overcast clouds,9.49,50.81,REER XOOSHLE GROUP
69,Martapura,ID,86.85,scattered clouds,-3.42,114.85,Montana Hotel Syariah
73,Havelock,US,82.0,scattered clouds,34.88,-76.9,Sherwood Motel
75,Bandiagara,ML,76.24,overcast clouds,14.35,-3.61,Hotel de la Falaise
80,Kapurthala,IN,82.4,mist,31.38,75.38,Hotel Mehak
81,Esmeralda,CU,78.8,clear sky,21.85,-78.12,campismo las palmas
88,Yulara,AU,75.2,clear sky,-25.24,130.99,Desert Gardens Hotel - Ayers Rock Resort
90,Pakala,IN,80.6,few clouds,13.47,79.12,TELUGU TALLI OLD AGE HOME
91,Cockburn Town,TC,82.42,clear sky,21.46,-71.14,Osprey Beach Hotel
96,Kavieng,PG,85.91,scattered clouds,-2.57,150.8,Nusa Island Retreat
99,Sao Filipe,CV,79.12,broken clouds,14.9,-24.5,Tortuga B&B
100,Kavaratti,IN,81.97,light rain,10.57,72.64,Bismillah Hotel And Lodging
103,Hithadhoo,MV,82.65,scattered clouds,-0.6,73.08,Scoop Guest House
104,Faanui,PF,78.3,clear sky,-16.48,-151.75,Bora-Bora Pearl Beach Resort & Spa
105,Port-Gentil,GA,75.16,overcast clouds,-0.72,8.78,Fengshui Residence
109,Fort Walton Beach,US,82.4,clear sky,30.41,-86.62,Best Western Ft. Walton Beachfront
111,Butaritari,KI,84.0,scattered clouds,3.07,172.79,Isles Sunset Lodge
112,Lorengau,PG,85.33,overcast clouds,-2.02,147.27,Lorengau Harbourside Hotel
116,Dunmore Town,BS,84.24,scattered clouds,25.5,-76.65,Coral Sands Hotel
117,Puerto Narino,CO,77.0,overcast clouds,-3.77,-70.38,Eware Refugio Amazonico
119,Charlestown,AU,75.0,clear sky,-32.95,151.67,Panorama Motor Inn Hotel
122,Mount Isa,AU,82.4,few clouds,-20.73,139.5,ibis Styles Mt Isa Verona
133,Phalodi,IN,89.6,scattered clouds,27.13,72.37,Hotel Fort View
139,Sabang,ID,83.43,overcast clouds,5.89,95.32,Hotel Citra
147,San Pedro,PH,88.0,broken clouds,14.35,121.02,OYO 412 Viewfort Venue
148,Karratha,AU,88.57,clear sky,-20.74,116.85,ibis Styles Karratha
152,Meulaboh,ID,80.31,overcast clouds,4.14,96.13,Kost Pria
153,Namatanai,PG,84.88,scattered clouds,-3.67,152.43,Namatanai Hotel
159,Suwannaphum,TH,88.0,few clouds,15.6,103.8,วรรณมณี รีสอร์ท
161,Jaru,BR,80.2,scattered clouds,-10.44,-62.47,Hotel Paraná
165,Kapaa,US,82.4,clear sky,22.08,-159.32,Sheraton Kauai Resort at Coconut Beach
166,Palmerston,AU,89.01,broken clouds,-12.49,130.98,Quest Palmerston - Serviced Apartments and Accommodation
169,Sri Aman,MY,80.6,scattered clouds,1.24,111.46,Seri Simanggang Hotel
175,Karimganj,IN,78.39,overcast clouds,24.87,92.35,Ahar Hotel And Aheli Restaurant
176,Dingle,PH,86.14,overcast clouds,11.0,122.67,Camp Pasica
177,Marsh Harbour,BS,84.31,overcast clouds,26.54,-77.06,Abaco Beach Resort
178,Vaini,TO,80.6,scattered clouds,-21.2,-175.2,Keleti Beach Resort
179,San Policarpo,PH,80.65,light rain,12.18,125.51,Zal-Ann Beach Resort
185,Nieuw Amsterdam,SR,78.01,light rain,5.88,-55.08,Hotel Stardust
189,Hilo,US,82.4,broken clouds,19.73,-155.09,Hilo Hawaiian Hotel
190,Pochutla,MX,78.01,overcast clouds,15.74,-96.47,Hotel Posada San Jose
191,Hermiston,US,80.6,clear sky,45.84,-119.29,Oxford Suites Hermiston
194,Irbil,IQ,83.84,clear sky,36.19,44.01,Erbil International Hotel
199,Lazaro Cardenas,MX,78.22,moderate rain,17.96,-102.2,Collection O Hotel Quinta Antigua
201,Sungaipenuh,ID,75.78,light rain,-2.08,101.38,Hotel Jaya Wisata 2
211,Kingston,JM,86.0,broken clouds,18.0,-76.79,The Jamaica Pegasus Hotel
212,Isangel,VU,75.2,broken clouds,-19.55,169.27,Volcano Sea View Tree House
213,Monrovia,LR,75.79,light rain,6.3,-10.8,Eco-Hotel Hall & Restaurant
214,Jining,CN,82.45,clear sky,35.41,116.58,Yunhe Star Hotel
218,Soe,ID,79.18,broken clouds,-9.86,124.28,Dena Hotel
221,Shingu,JP,86.0,few clouds,33.73,135.98,Shingu UI Hotel
224,Georgetown,MY,86.0,few clouds,5.41,100.34,Cititel Penang
225,Guerrero Negro,MX,76.64,light rain,27.98,-114.06,"Casa Laguna, Bed & Breakfast"
226,Alibag,IN,80.6,shower rain,18.64,72.88,"Radisson Blu Resort & Spa - Alibaug, India"
227,Yining,CN,86.63,clear sky,29.04,114.56,Xiushui Hotel
228,Laguna,US,84.0,clear sky,38.42,-121.42,Holiday Inn Express & Suites Elk Grove Central - Hwy 99
231,Myitkyina,MM,80.38,overcast clouds,25.38,97.4,Shwe Phyu Hotel
233,Wucheng,CN,84.99,light rain,29.6,118.17,Xiuwu Restaurant
238,Itoman,JP,89.6,few clouds,26.12,127.67,Southern Beach Hotel & Resort Okinawa
243,Tura,IN,78.17,light rain,25.52,90.22,Hotel RIKMAN Continental
244,Greeneville,US,75.99,overcast clouds,36.16,-82.83,General Morgan Inn and Conference Center
256,Jalu,LY,78.42,clear sky,29.03,21.55,Jalu Hotel
259,Padang,ID,83.8,overcast clouds,-0.95,100.35,Mercure Padang
260,Nishihara,JP,89.6,haze,26.18,127.76,Minshuku Agaihama
261,Abu Ghosh,IL,81.0,scattered clouds,31.81,35.11,שורש ירוק בהר - Green Hill Suites at Shoresh
265,Ontario,US,82.4,clear sky,34.06,-117.65,DoubleTree by Hilton Hotel Ontario Airport
269,Boa Vista,BR,80.6,scattered clouds,2.82,-60.67,Aipana Plaza Hotel
270,Ahuimanu,US,87.8,few clouds,21.44,-157.84,Paradise Bay Resort
272,Sungairaya,ID,85.95,clear sky,0.7,108.9,808 artel
274,Pirgos,GR,78.01,clear sky,35.12,25.72,Daios Cove
275,Riyadh,SA,80.6,overcast clouds,24.69,46.72,InterContinental Riyadh
276,Gouyave,GD,80.6,scattered clouds,12.16,-61.73,Rumboat Retreat
277,Salalah,OM,77.0,overcast clouds,17.02,54.09,HAMDAN PLAZA HOTEL
278,Cabo San Lucas,MX,81.0,overcast clouds,22.89,-109.91,Hotel Tesoro Los Cabos
280,Caibarien,CU,80.6,few clouds,22.52,-79.47,La Nena
285,Ixtapa,MX,84.2,light rain,20.7,-105.2,Container Inn Puerto Vallarta
288,Trairi,BR,78.44,broken clouds,-3.28,-39.27,Pousada Field Lilies - Trairi
305,Manavalakurichi,IN,84.2,few clouds,8.13,77.3,Udaya Boys Hostel
307,Puerto Escondido,MX,80.44,overcast clouds,15.85,-97.07,Aldea del Bazar Hotel and Spa
312,Mayo,US,79.0,clear sky,38.89,-76.51,Resorts Resource Group International
314,Luganville,VU,80.6,broken clouds,-15.53,167.17,The Espiritu Hotel
317,Bengkulu,ID,83.79,broken clouds,-3.8,102.27,Grage Hotel Bengkulu
319,Shimoda,JP,84.2,broken clouds,34.67,138.95,Shimoda Tokyu Hotel
320,Diffa,NE,77.11,light rain,13.32,12.61,ProDAF/Diffa
324,Tomatlan,MX,78.64,overcast clouds,19.93,-105.25,Norma franco
330,Gigmoto,PH,84.92,overcast clouds,13.78,124.39,Cj's Travellers Inn
337,Jian,CN,85.51,clear sky,27.12,114.98,Luling International Hotel
339,Sterling,US,77.0,few clouds,39.01,-77.43,Hampton Inn & Suites Washington-Dulles International Airport
344,Ambon,ID,77.0,broken clouds,-3.7,128.18,Swiss-Belhotel Ambon
345,Cabedelo,BR,77.0,scattered clouds,-6.98,-34.83,Lua Mansa Pousada
351,Jieshi,CN,85.08,broken clouds,22.81,115.83,Yuehai Hotel
352,Ternate,ID,83.01,overcast clouds,0.8,127.4,Grand Dafam Bela Ternate
353,Bathsheba,BB,82.4,shower rain,13.22,-59.52,Atlantis Hotel
357,Calderitas,MX,82.94,clear sky,18.55,-88.25,Hotel Hacienda Campestre
359,Aland,IN,76.35,overcast clouds,17.57,76.57,Kumar lodge & restaurant
361,Kailua,US,84.2,few clouds,21.4,-157.74,Sheffield House Bed & Breakfast
362,Sinnamary,GF,79.21,overcast clouds,5.38,-52.95,ALETHEIA Appartement Sinnamary
364,Santa Cruz Del Norte,CU,75.2,few clouds,23.15,-81.92,Rioger Art
365,Alexandria,EG,78.8,scattered clouds,31.22,29.96,Royal Crown Hotel
366,Palmas,BR,78.8,clear sky,-10.21,-48.36,Hotel Lago da Palma
372,Touros,BR,77.0,scattered clouds,-5.2,-35.46,INN NEW HORIZON
373,Dakar,SN,84.2,broken clouds,14.69,-17.44,Novotel Dakar
376,Santa Rosa,PH,88.0,moderate rain,14.31,121.11,Amethyst Econotel
377,Hefei,CN,84.2,scattered clouds,31.86,117.28,Jinhuan Hotel
379,Ulladulla,AU,75.2,clear sky,-35.35,150.47,Sandpiper Motel
382,Sampit,ID,89.51,scattered clouds,-2.53,112.95,Aquarius Boutique Hotel Sampit
384,Labuhan,ID,82.78,overcast clouds,-6.88,112.21,bador sepret
387,Sao Felix Do Xingu,BR,77.0,scattered clouds,-6.64,-51.99,Apart Hotel Rio Xingu
389,Basco,PH,84.07,overcast clouds,20.45,121.97,Nathaniel's Lodge
390,Tautira,PF,84.2,scattered clouds,-17.73,-149.15,Pension Oaoa
391,Sao Miguel Do Araguaia,BR,76.44,clear sky,-13.28,-50.16,Hotel Executivo Palace
395,Voh,NC,75.94,clear sky,-20.97,164.7,Le gîte du Koniambo
396,Trincomalee,LK,82.11,overcast clouds,8.57,81.23,Welcombe Hotel
399,Neiafu,TO,82.4,few clouds,-18.65,-173.98,Mystic Sands
401,Sabancuy,MX,82.87,broken clouds,18.97,-91.18,Hotel Aguilar
406,Tabou,CI,75.11,overcast clouds,4.42,-7.35,hotêl doufoulougou
416,Mitsamiouli,KM,75.06,clear sky,-11.38,43.28,Foyer ADM
423,West Wendover,US,89.6,clear sky,40.74,-114.07,"Motel 6 Wendover, UT"
424,Pedasi,PA,78.8,overcast clouds,7.53,-80.03,Selina Pedasi
425,Nirmali,IN,89.02,scattered clouds,26.32,86.58,Kali Mandir Suraj Hotel
428,Tual,ID,79.25,moderate rain,-5.67,132.75,Grand Vilia Hotel
429,Biak,ID,82.8,overcast clouds,-0.91,122.88,Kost Ariz
430,Yatou,CN,79.7,scattered clouds,37.15,122.38,GreenTree Hotel Rongcheng Bus Station
431,Zaranj,AF,77.0,clear sky,30.97,61.88,غزنوی هوتل
432,Buraydah,SA,77.0,clear sky,26.33,43.98,Mövenpick Hotel Qassim
434,Bilma,NE,85.42,broken clouds,18.69,12.92,Expeditions Ténére voyages
439,Kloulklubed,PW,86.0,broken clouds,7.04,134.26,Storyboard Beach Resort
440,Makakilo City,US,87.8,scattered clouds,21.35,-158.09,Marriott's Ko Olina Beach Club
444,Khorramshahr,IR,84.2,clear sky,30.44,48.17,دفتر نمایندگی شرکت بازاریابان ایرانیان زمینBIZ
446,Acarau,BR,78.3,broken clouds,-2.89,-40.12,castelo pizzaria
447,Talwandi Bhai,IN,87.22,clear sky,30.85,74.93,Vicky Sweet & Snacks
448,Cururupu,BR,77.07,clear sky,-1.83,-44.87,Pousada Través'cia
450,Aswan,EG,80.1,clear sky,24.09,32.91,Nuba Nile
452,Yuanping,CN,79.27,scattered clouds,38.72,112.76,Yuanping Xinghe Guesthouse
454,Kennewick,US,79.0,clear sky,46.21,-119.14,Clover Island Inn
459,Atambua,ID,84.43,overcast clouds,-9.11,124.89,Pondok Pesantren Al Muhajirin Atambua
461,Banda Aceh,ID,83.86,overcast clouds,5.56,95.32,OYO 884 Rumoh PMI Hotel
462,Maningrida,AU,88.83,scattered clouds,-12.07,134.27,Dhukurrdji Lodge
465,Bubaque,GW,78.85,light rain,11.28,-15.83,Casa Dora
466,Dawlatabad,AF,76.5,clear sky,36.41,64.91,WASIM ASGAR KHAN
470,Bowen,AU,75.2,broken clouds,-20.02,148.23,Castle Motor Lodge Motel
471,Alofi,NU,80.6,few clouds,-19.06,-169.92,Taloa Heights
472,Sur,OM,86.74,scattered clouds,22.57,59.53,Sur Plaza Hotel
473,Luquillo,PR,84.2,scattered clouds,18.37,-65.72,Yunque Mar Beach Hotel
474,Naze,JP,87.8,light intensity shower rain,28.37,129.48,奄美ポートタワーホテル
476,San Patricio,MX,78.87,overcast clouds,19.22,-104.7,Hotel Cabo Blanco
482,Gat,IL,81.0,clear sky,31.61,34.76,רגע בנחת
484,Kerema,PG,82.71,few clouds,-7.96,145.78,Elore Lodge
487,Progreso,MX,87.01,scattered clouds,21.28,-89.67,Playa Linda Hotel
490,Effingham,US,82.4,broken clouds,32.37,-81.33,Elizabeth Hobbs
491,Port Blair,IN,85.1,scattered clouds,11.67,92.75,Fortune Resort Bay Island
494,Rapid Valley,US,80.6,heavy intensity rain,44.06,-103.15,Fairfield Inn & Suites by Marriott Rapid City
497,Bairiki,KI,89.6,few clouds,1.33,172.98,Tarawa Boutique Hotel
500,Broken Hill,AU,77.0,overcast clouds,-31.95,141.43,Daydream Motel & Cottages
504,Banyuwangi,ID,82.99,broken clouds,-8.23,114.36,Hotel Blambangan
505,Muscat,OM,86.0,scattered clouds,23.61,58.59,Mutrah Hotel
506,Rio Esteban,HN,80.6,clear sky,15.83,-86.3,Hotel La Fé
509,Jiwani,PK,81.07,few clouds,25.05,61.74,Al Mumtaz Transport Jiwani
510,Road Town,VG,84.0,clear sky,18.42,-64.62,"ZINGARA 76ft Catamaran, full crew-all included"
515,Liancheng,CN,78.94,clear sky,24.05,105.08,Peace Hotel
519,Akyab,MM,83.68,overcast clouds,20.15,92.9,Hotel Memory
522,Harper,LR,75.2,light rain,4.38,-7.72,Screensaver
525,Russell,US,80.6,overcast clouds,32.35,-85.2,Macs
526,Manicore,BR,78.8,scattered clouds,-5.81,-61.3,Pousada da wanda
528,Nabire,ID,79.39,overcast clouds,-3.37,135.48,Hotel Nusantara Nabire
529,Mazagao,BR,84.2,scattered clouds,-0.12,-51.29,Casa Lima Santos
532,Lao Cai,VN,85.62,broken clouds,22.48,103.95,Legend Hotel
533,Palauig,PH,84.22,very heavy rain,15.44,119.9,Myhousebythesea
535,Oranjestad,AW,84.2,few clouds,12.52,-70.03,Divi Village Golf & Beach Resort
539,Zhicheng,CN,85.21,clear sky,30.3,111.5,Wangjiang Building
540,Nouakchott,MR,82.4,few clouds,18.09,-15.98,Hôtel Iman
545,Suez,EG,75.31,clear sky,29.97,32.53,Green House
546,Salinopolis,BR,79.61,broken clouds,-0.61,-47.36,Hotel Salinópolis
547,Enshi,CN,85.35,scattered clouds,30.3,109.48,Moevenpick Enshi
548,Puri,IN,84.2,haze,19.8,85.85,OYO 1577 Hotel Shree Hari Grand
552,Port Lavaca,US,87.01,clear sky,28.61,-96.63,Holiday Inn Express & Suites Port Lavaca
560,Alta Floresta,BR,78.48,scattered clouds,-9.88,-56.09,Floresta Amazonica Hotel
561,Gizo,SB,84.31,broken clouds,-8.1,156.84,Imagination Island
565,Muli,MV,83.59,few clouds,2.92,73.57,Medhufushi Island Resort
568,Coahuayana,MX,77.63,overcast clouds,18.73,-103.68,Hotel Los Arcos
569,Fare,PF,78.08,clear sky,-16.7,-151.02,Maitai Lapita Village Huahine
571,Kumluca,TR,86.85,clear sky,36.37,30.29,TurkuazKöy
575,Mountain Home,US,89.6,clear sky,43.13,-115.69,Mountain Home Inn
580,Bombay,IN,80.6,shower rain,19.01,72.85,Four Seasons Hotel Mumbai
581,Gabaldon,PH,85.05,light rain,15.45,121.34,Leivy Lance Resort
584,Shache,CN,76.98,overcast clouds,38.42,77.24,Delong Hotel
588,Newberry,US,80.01,clear sky,34.27,-81.62,Hampton Inn Newberry-Opera House
589,Kingsland,US,80.6,scattered clouds,30.8,-81.69,Microtel Inn & Suites by Wyndham Kingsland
591,Santa Cruz,BO,77.0,clear sky,-17.8,-63.17,Hotel Cortez
596,Conde,BR,77.0,scattered clouds,-7.26,-34.91,Pousada Beija Flor
599,Sattahip,TH,86.0,few clouds,12.67,100.9,Makmai Sailom Heights
600,Payo,ID,88.74,broken clouds,-3.75,103.64,Mess keban agung
603,Petatlan,MX,76.05,overcast clouds,17.52,-101.27,Hotel California Petatlán
607,Lethem,GY,75.42,light rain,3.38,-59.8,Savannah Inn
610,Waingapu,ID,85.71,light rain,-9.66,120.26,Pondok Wisata Elim
613,Cayenne,GF,78.8,overcast clouds,4.93,-52.33,Hôtel Le Dronmi
616,West Hollywood,US,75.2,clear sky,34.09,-118.36,The Hollywood Roosevelt
617,Kununurra,AU,87.8,few clouds,-15.77,128.73,Hotel Kununurra
618,Parola,IN,76.53,light rain,20.88,75.12,Patil Water Solution
620,Belle Fourche,US,77.0,few clouds,44.67,-103.85,Kings Inn
633,Pak Phanang,TH,89.6,few clouds,8.35,100.2,Green Park Inn Hotel
635,San Juan De Uraba,CO,76.28,broken clouds,8.76,-76.53,Hotel Cerro De Zumba
638,Wajima,JP,86.0,scattered clouds,37.4,136.9,Wajiima Onsen Yashio
643,Tumpat,MY,86.0,few clouds,6.2,102.17,OYO 44005 Senangin Resort & Cafe
644,San Andres,CO,77.0,broken clouds,12.58,-81.7,Hotel Arena Blanca
648,Kahului,US,87.8,clear sky,20.89,-156.47,Maui Seaside Hotel
649,Sorong,ID,83.26,broken clouds,-0.88,131.25,The Waigo Hotel
652,Auki,SB,87.28,overcast clouds,-8.77,160.7,Auki Motel
654,Itacoatiara,BR,75.02,moderate rain,-3.14,-58.44,BBB Rooms Centro Itacoatiara AM
655,Guiren,CN,75.31,overcast clouds,33.67,118.19,Suyuan Hotel
661,Puerto Cabezas,NI,79.83,few clouds,14.04,-83.39,Hotel Caribe
668,Iberia,US,80.6,clear sky,29.95,-91.75,back to back rv park
669,Arlit,NE,87.96,few clouds,18.74,7.39,Hôtel Telwa Bungalow
673,Pampa,US,80.6,very heavy rain,35.54,-100.96,Holiday Inn Express & Suites Pampa
